[
    {
        "city": "Providence",
        "state": "RI",
        "country": "USA",
        "name": "Malachi's",
        "address": "134 Ives St, Providence, RI 02906",
        "coordinates": ["41.821898", "-71.392167"],
        "link": {
            "yelp": "http://www.yelp.com/biz/malachis-providence"
        }
    },
    {
        "city": "Providence",
        "state": "RI",
        "country": "USA",
        "name": "White Electric Coffee",
        "address": "711 Westminster St, Providence, RI 02903",
        "coordinates": ["41.818550", "-71.420079"],
        "link": {
            "yelp": "http://www.yelp.com/biz/white-electric-coffee-providence"
        }
    },
    {
        "city": "Providence",
        "state": "RI",
        "country": "USA",
        "name": "Small Point Café",
        "address": "230 Westminster St, Providence, RI 02903",
        "coordinates": ["41.822959", "-71.412513"],
        "link": {
            "yelp": "http://www.yelp.com/biz/small-point-café-providence"
        }
    },
    {
        "city": "Providence",
        "state": "RI",
        "country": "USA",
        "name": "Blue State Coffee",
        "address": "300 Thayer St, Providence, RI 02906",
        "coordinates": ["41.830135", "-71.401046"],
        "link": {
            "yelp": "http://www.yelp.com/biz/blue-state-coffee-providence"
        }
    },
    {
        "city": "Providence",
        "state": "RI",
        "country": "USA",
        "name": "The Duck and Bunny",
        "address": "312 Wickenden St, Providence, RI",
        "coordinates": ["41.819664", "-71.396906"],
        "link": {
            "yelp": "http://www.yelp.com/biz/the-duck-and-bunny-providence"
        }
    },
    {
        "city": "Providence",
        "state": "RI",
        "country": "USA",
        "name": "Cafe Zog",
        "address": "239 Wickenden St, Providence, RI",
        "coordinates": ["41.819415", "-71.398484"],
        "link": {
            "yelp": "http://www.yelp.com/biz/cafe-zog-providence"
        }
    },
    {
        "city": "Providence",
        "state": "RI",
        "country": "USA",
        "name": "New Harvest Coffee & Spirits",
        "address": "130 Westminster St, Ste 118, Providence, RI 02903",
        "coordinates": ["41.824152", "-71.410730"],
        "link": {
            "yelp": "http://www.yelp.com/biz/new-harvest-coffee-and-spirits-providence"
        }
    },
    {
        "city": "Providence",
        "state": "RI",
        "country": "USA",
        "name": "Coffee Exchange",
        "address": "207 Wickenden St, Providence, RI 02903",
        "coordinates": ["41.819275", "-71.399081"],
        "link": {
            "yelp": "http://www.yelp.com/biz/coffee-exchange-providence"
        }
    }
]
